[{"county_name":"Barnes","description":null,"feat_class":"Populated Place","feature_id":"20746","fips_class":"C5","fips_county_cd":"3","full_county_name":"Barnes County","link_title":null,"url":"http:\/\/valleycity.govoffice.com\/","name":"Valley City","primary_latitude":"46.92","primary_longitude":"-98","state_abbreviation":"ND","state_name":"North Dakota"},{"county_name":"Stutsman","description":null,"feat_class":"Populated Place","feature_id":"19987","fips_class":"C5","fips_county_cd":"93","full_county_name":"Stutsman County","link_title":null,"url":"http:\/\/www.jamestownnd.com\/","name":"Jamestown","primary_latitude":"46.91","primary_longitude":"-98.7","state_abbreviation":"ND","state_name":"North Dakota"},{"county_name":"Richland","description":null,"feat_class":"Populated Place","feature_id":"20775","fips_class":"C5","fips_county_cd":"77","full_county_name":"Richland County","link_title":null,"url":"http:\/\/www.wahpeton.com\/","name":"Wahpeton","primary_latitude":"46.26","primary_longitude":"-96.6","state_abbreviation":"ND","state_name":"North Dakota"},{"county_name":"Pierce","description":null,"feat_class":"Populated Place","feature_id":"20520","fips_class":"C5","fips_county_cd":"69","full_county_name":"Pierce County","link_title":null,"url":"http:\/\/rugbynorthdakota.com\/","name":"Rugby","primary_latitude":"48.36","primary_longitude":"-99.99","state_abbreviation":"ND","state_name":"North Dakota"},{"county_name":"Dunn","description":null,"feat_class":"Populated Place","feature_id":"20017","fips_class":"C5","fips_county_cd":"25","full_county_name":"Dunn County","link_title":null,"url":"http:\/\/www.killdeer.com\/","name":"Killdeer","primary_latitude":"47.37","primary_longitude":"-102.75","state_abbreviation":"ND","state_name":"North Dakota"},{"county_name":"LaMoure","description":null,"feat_class":"Populated Place","feature_id":"20030","fips_class":"C5","fips_county_cd":"45","full_county_name":"LaMoure County","link_title":null,"url":"http:\/\/www.kulmnd.com\/","name":"Kulm","primary_latitude":"46.3","primary_longitude":"-98.94","state_abbreviation":"ND","state_name":"North Dakota"},{"county_name":"Dickey","description":null,"feat_class":"Populated Place","feature_id":"20319","fips_class":"C5","fips_county_cd":"21","full_county_name":"Dickey County","link_title":null,"url":"http:\/\/www.oakesnd.com\/","name":"Oakes","primary_latitude":"46.13","primary_longitude":"-98.09","state_abbreviation":"ND","state_name":"North Dakota"},{"county_name":"Williams","description":null,"feat_class":"Populated Place","feature_id":"20844","fips_class":"C5","fips_county_cd":"105","full_county_name":"Williams County","link_title":null,"url":"http:\/\/www.willistonnd.com\/","name":"Williston","primary_latitude":"48.14","primary_longitude":"-103.61","state_abbreviation":"ND","state_name":"North Dakota"},{"county_name":"Grand Forks","description":null,"feat_class":"Populated Place","feature_id":"19822","fips_class":"C5","fips_county_cd":"35","full_county_name":"Grand Forks County","link_title":null,"url":"http:\/\/www.grandforksgov.com\/","name":"Grand Forks","primary_latitude":"47.92","primary_longitude":"-97.03","state_abbreviation":"ND","state_name":"North Dakota"},{"county_name":"Ramsey","description":null,"feat_class":"Populated Place","feature_id":"19587","fips_class":"C5","fips_county_cd":"71","full_county_name":"Ramsey County","link_title":null,"url":"http:\/\/www.ci.devils-lake.nd.us\/","name":"Devils Lake","primary_latitude":"48.11","primary_longitude":"-98.86","state_abbreviation":"ND","state_name":"North Dakota"},{"county_name":"Stark","description":null,"feat_class":"Populated Place","feature_id":"19591","fips_class":"C5","fips_county_cd":"89","full_county_name":"Stark County","link_title":null,"url":"http:\/\/www.dickinsongov.com\/","name":"Dickinson","primary_latitude":"46.87","primary_longitude":"-102.78","state_abbreviation":"ND","state_name":"North Dakota"},{"county_name":"Mercer","description":null,"feat_class":"Populated Place","feature_id":"19347","fips_class":"C5","fips_county_cd":"57","full_county_name":"Mercer County","link_title":null,"url":"http:\/\/www.beulahnd.org\/","name":"Beulah","primary_latitude":"47.26","primary_longitude":"-101.77","state_abbreviation":"ND","state_name":"North Dakota"},{"county_name":null,"description":null,"feat_class":"Civil","feature_id":"38298","fips_class":"H1","fips_county_cd":"3","full_county_name":null,"link_title":null,"url":"http:\/\/www.co.barnes.nd.us\/","name":"Barnes County","primary_latitude":"46.94","primary_longitude":"-98.05","state_abbreviation":"ND","state_name":"North Dakota"},{"county_name":"Burleigh","description":null,"feat_class":"Populated Place","feature_id":"19360","fips_class":"C5","fips_county_cd":"15","full_county_name":"Burleigh County","link_title":null,"url":"http:\/\/www.bismarck.org\/","name":"Bismarck","primary_latitude":"46.8","primary_longitude":"-100.78","state_abbreviation":"ND","state_name":"North Dakota"},{"county_name":null,"description":null,"feat_class":"Civil","feature_id":"38304","fips_class":"H1","fips_county_cd":"15","full_county_name":null,"link_title":null,"url":"http:\/\/www.co.burleigh.nd.us\/","name":"Burleigh County","primary_latitude":"46.95","primary_longitude":"-100.46","state_abbreviation":"ND","state_name":"North Dakota"},{"county_name":null,"description":null,"feat_class":"Civil","feature_id":"38305","fips_class":"H1","fips_county_cd":"17","full_county_name":null,"link_title":null,"url":"http:\/\/www.casscountynd.gov\/","name":"Cass County","primary_latitude":"46.94","primary_longitude":"-97.22","state_abbreviation":"ND","state_name":"North Dakota"},{"county_name":null,"description":null,"feat_class":"Civil","feature_id":"38307","fips_class":"H1","fips_county_cd":"21","full_county_name":null,"link_title":null,"url":"http:\/\/www.dickeynd.com\/","name":"Dickey County","primary_latitude":"46.1","primary_longitude":"-98.5","state_abbreviation":"ND","state_name":"North Dakota"},{"county_name":"Morton","description":null,"feat_class":"Populated Place","feature_id":"20137","fips_class":"C5","fips_county_cd":"59","full_county_name":"Morton County","link_title":null,"url":"http:\/\/www.cityofmandan.com\/","name":"Mandan","primary_latitude":"46.82","primary_longitude":"-100.88","state_abbreviation":"ND","state_name":"North Dakota"},{"county_name":null,"description":null,"feat_class":"Civil","feature_id":"38314","fips_class":"H1","fips_county_cd":"35","full_county_name":null,"link_title":null,"url":"http:\/\/www.grandforkscountygov.com\/","name":"Grand Forks County","primary_latitude":"47.94","primary_longitude":"-97.43","state_abbreviation":"ND","state_name":"North Dakota"},{"county_name":null,"description":null,"feat_class":"Civil","feature_id":"38323","fips_class":"H1","fips_county_cd":"53","full_county_name":null,"link_title":null,"url":"http:\/\/www.4eyes.net\/","name":"McKenzie County","primary_latitude":"47.7","primary_longitude":"-103.44","state_abbreviation":"ND","state_name":"North Dakota"},{"county_name":null,"description":null,"feat_class":"Civil","feature_id":"38324","fips_class":"H1","fips_county_cd":"55","full_county_name":null,"link_title":null,"url":"http:\/\/www.visitmcleancounty.com\/","name":"McLean County","primary_latitude":"47.64","primary_longitude":"-101.3","state_abbreviation":"ND","state_name":"North Dakota"},{"county_name":null,"description":null,"feat_class":"Civil","feature_id":"38326","fips_class":"H1","fips_county_cd":"59","full_county_name":null,"link_title":null,"url":"http:\/\/www.co.morton.nd.us\/","name":"Morton County","primary_latitude":"46.77","primary_longitude":"-101.26","state_abbreviation":"ND","state_name":"North Dakota"},{"county_name":"Bottineau","description":null,"feat_class":"Populated Place","feature_id":"19383","fips_class":"C5","fips_county_cd":"9","full_county_name":"Bottineau County","link_title":null,"url":"http:\/\/bottineau.govoffice.com\/","name":"Bottineau","primary_latitude":"48.82","primary_longitude":"-100.44","state_abbreviation":"ND","state_name":"North Dakota"},{"county_name":null,"description":null,"feat_class":"Civil","feature_id":"38334","fips_class":"H1","fips_county_cd":"75","full_county_name":null,"link_title":null,"url":"http:\/\/www.renvillecounty.org\/","name":"Renville County","primary_latitude":"48.72","primary_longitude":"-101.67","state_abbreviation":"ND","state_name":"North Dakota"},{"county_name":null,"description":null,"feat_class":"Civil","feature_id":"38335","fips_class":"H1","fips_county_cd":"77","full_county_name":null,"link_title":null,"url":"https:\/\/www.mylocalgov.com\/richlandcountynd\/","name":"Richland County","primary_latitude":"46.28","primary_longitude":"-96.91","state_abbreviation":"ND","state_name":"North Dakota"},{"county_name":null,"description":null,"feat_class":"Civil","feature_id":"38337","fips_class":"H1","fips_county_cd":"81","full_county_name":null,"link_title":null,"url":"https:\/\/www.mylocalgov.com\/sargentcountynd\/","name":"Sargent County","primary_latitude":"46.09","primary_longitude":"-97.62","state_abbreviation":"ND","state_name":"North Dakota"},{"county_name":null,"description":null,"feat_class":"Civil","feature_id":"38338","fips_class":"H1","fips_county_cd":"83","full_county_name":null,"link_title":null,"url":"https:\/\/www.mylocalgov.com\/sheridancountynd\/","name":"Sheridan County","primary_latitude":"47.56","primary_longitude":"-100.31","state_abbreviation":"ND","state_name":"North Dakota"},{"county_name":"Ward","description":null,"feat_class":"Populated Place","feature_id":"20679","fips_class":"C5","fips_county_cd":"101","full_county_name":"Ward County","link_title":null,"url":"http:\/\/www.surreynd.org\/","name":"Surrey","primary_latitude":"48.23","primary_longitude":"-101.13","state_abbreviation":"ND","state_name":"North Dakota"},{"county_name":null,"description":null,"feat_class":"Civil","feature_id":"38344","fips_class":"H1","fips_county_cd":"95","full_county_name":null,"link_title":null,"url":"https:\/\/www.mylocalgov.com\/townercountynd\/","name":"Towner County","primary_latitude":"48.68","primary_longitude":"-99.2","state_abbreviation":"ND","state_name":"North Dakota"},{"county_name":null,"description":null,"feat_class":"Civil","feature_id":"38345","fips_class":"H1","fips_county_cd":"97","full_county_name":null,"link_title":null,"url":"https:\/\/www.mylocalgov.com\/traillcountynd\/","name":"Traill County","primary_latitude":"47.44","primary_longitude":"-97.16","state_abbreviation":"ND","state_name":"North Dakota"},{"county_name":null,"description":null,"feat_class":"Civil","feature_id":"38346","fips_class":"H1","fips_county_cd":"99","full_county_name":null,"link_title":null,"url":"http:\/\/www.walshcountynd.com\/","name":"Walsh County","primary_latitude":"48.36","primary_longitude":"-97.69","state_abbreviation":"ND","state_name":"North Dakota"},{"county_name":null,"description":null,"feat_class":"Civil","feature_id":"38347","fips_class":"H1","fips_county_cd":"101","full_county_name":null,"link_title":null,"url":"http:\/\/www.co.ward.nd.us\/","name":"Ward County","primary_latitude":"48.21","primary_longitude":"-101.45","state_abbreviation":"ND","state_name":"North Dakota"},{"county_name":null,"description":null,"feat_class":"Civil","feature_id":"38348","fips_class":"H1","fips_county_cd":"103","full_county_name":null,"link_title":null,"url":"https:\/\/mylocalgov.com\/wellscountynd\/","name":"Wells County","primary_latitude":"47.59","primary_longitude":"-99.65","state_abbreviation":"ND","state_name":"North Dakota"},{"county_name":"McLean","description":null,"feat_class":"Populated Place","feature_id":"20726","fips_class":"C5","fips_county_cd":"55","full_county_name":"McLean County","link_title":null,"url":"http:\/\/www.wrtc.com\/citytl\/","name":"Turtle Lake","primary_latitude":"47.51","primary_longitude":"-100.89","state_abbreviation":"ND","state_name":"North Dakota"},{"county_name":"Cass","description":null,"feat_class":"Populated Place","feature_id":"19703","fips_class":"C5","fips_county_cd":"17","full_county_name":"Cass County","link_title":null,"url":"http:\/\/www.ci.fargo.nd.us\/","name":"Fargo","primary_latitude":"46.87","primary_longitude":"-96.78","state_abbreviation":"ND","state_name":"North Dakota"},{"county_name":"Ward","description":null,"feat_class":"Populated Place","feature_id":"20215","fips_class":"C5","fips_county_cd":"101","full_county_name":"Ward County","link_title":null,"url":"http:\/\/web.ci.minot.nd.us\/","name":"Minot","primary_latitude":"48.23","primary_longitude":"-101.29","state_abbreviation":"ND","state_name":"North Dakota"},{"county_name":"Renville","description":null,"feat_class":"Populated Place","feature_id":"20222","fips_class":"C5","fips_county_cd":"75","full_county_name":"Renville County","link_title":null,"url":"http:\/\/www.mohallndak.com\/","name":"Mohall","primary_latitude":"48.76","primary_longitude":"-101.51","state_abbreviation":"ND","state_name":"North Dakota"}]