[{"county_name":"Obion","description":null,"feat_class":"Populated Place","feature_id":"32002","fips_class":"C1","fips_county_cd":"131","full_county_name":"Obion County","link_title":null,"url":"http:\/\/troy.troytn.com\/","name":"Troy","primary_latitude":"36.33","primary_longitude":"-89.16","state_abbreviation":"TN","state_name":"Tennessee"},{"county_name":"Unicoi","description":null,"feat_class":"Populated Place","feature_id":"32005","fips_class":"C1","fips_county_cd":"171","full_county_name":"Unicoi County","link_title":null,"url":"http:\/\/www.unicoi.tn.us\/","name":"Unicoi","primary_latitude":"36.19","primary_longitude":"-82.34","state_abbreviation":"TN","state_name":"Tennessee"},{"county_name":"Franklin","description":null,"feat_class":"Populated Place","feature_id":"31754","fips_class":"C1","fips_county_cd":"51","full_county_name":"Franklin County","link_title":null,"url":"http:\/\/www.decherd.net\/","name":"Decherd","primary_latitude":"35.2","primary_longitude":"-86.07","state_abbreviation":"TN","state_name":"Tennessee"},{"county_name":"Dickson","description":null,"feat_class":"Populated Place","feature_id":"31755","fips_class":"C1","fips_county_cd":"43","full_county_name":"Dickson County","link_title":null,"url":"http:\/\/www.cityofdickson.com\/","name":"Dickson","primary_latitude":"36.07","primary_longitude":"-87.38","state_abbreviation":"TN","state_name":"Tennessee"},{"county_name":"Sequatchie","description":null,"feat_class":"Populated Place","feature_id":"31761","fips_class":"C1","fips_county_cd":"153","full_county_name":"Sequatchie County","link_title":null,"url":"http:\/\/www.cityofdunlap.com\/","name":"Dunlap","primary_latitude":"35.37","primary_longitude":"-85.39","state_abbreviation":"TN","state_name":"Tennessee"},{"county_name":"Wayne","description":null,"feat_class":"Populated Place","feature_id":"32017","fips_class":"C1","fips_county_cd":"181","full_county_name":"Wayne County","link_title":null,"url":"http:\/\/www.cityofwaynesboro.org\/","name":"Waynesboro","primary_latitude":"35.31","primary_longitude":"-87.76","state_abbreviation":"TN","state_name":"Tennessee"},{"county_name":"Sumner","description":null,"feat_class":"Populated Place","feature_id":"32020","fips_class":"C1","fips_county_cd":"165","full_county_name":"Sumner County","link_title":null,"url":"http:\/\/www.cityofwhitehouse.com\/","name":"White House","primary_latitude":"36.47","primary_longitude":"-86.65","state_abbreviation":"TN","state_name":"Tennessee"},{"county_name":"Carter","description":null,"feat_class":"Populated Place","feature_id":"31767","fips_class":"C1","fips_county_cd":"19","full_county_name":"Carter County","link_title":null,"url":"http:\/\/www.elizabethton.org\/","name":"Elizabethton","primary_latitude":"36.34","primary_longitude":"-82.21","state_abbreviation":"TN","state_name":"Tennessee"},{"county_name":"Williamson","description":null,"feat_class":"Populated Place","feature_id":"31776","fips_class":"C1","fips_county_cd":"187","full_county_name":"Williamson County","link_title":null,"url":"http:\/\/www.fairview-tn.org\/","name":"Fairview","primary_latitude":"35.98","primary_longitude":"-87.12","state_abbreviation":"TN","state_name":"Tennessee"},{"county_name":"Knox","description":null,"feat_class":"Populated Place","feature_id":"31777","fips_class":"C1","fips_county_cd":"93","full_county_name":"Knox County","link_title":null,"url":"http:\/\/www.townoffarragut.org\/","name":"Farragut","primary_latitude":"35.88","primary_longitude":"-84.15","state_abbreviation":"TN","state_name":"Tennessee"},{"county_name":"Lincoln","description":null,"feat_class":"Populated Place","feature_id":"31778","fips_class":"C1","fips_county_cd":"103","full_county_name":"Lincoln County","link_title":null,"url":"http:\/\/www.fayettevilletn.com\/","name":"Fayetteville","primary_latitude":"35.15","primary_longitude":"-86.57","state_abbreviation":"TN","state_name":"Tennessee"},{"county_name":"Williamson","description":null,"feat_class":"Populated Place","feature_id":"31781","fips_class":"C1","fips_county_cd":"187","full_county_name":"Williamson County","link_title":null,"url":"http:\/\/www.franklin-gov.com\/","name":"Franklin","primary_latitude":"35.92","primary_longitude":"-86.86","state_abbreviation":"TN","state_name":"Tennessee"},{"county_name":"Sevier","description":null,"feat_class":"Populated Place","feature_id":"31790","fips_class":"C1","fips_county_cd":"155","full_county_name":"Sevier County","link_title":null,"url":"http:\/\/www.ci.gatlinburg.tn.us\/","name":"Gatlinburg","primary_latitude":"35.71","primary_longitude":"-83.51","state_abbreviation":"TN","state_name":"Tennessee"},{"county_name":"Shelby","description":null,"feat_class":"Populated Place","feature_id":"31791","fips_class":"C1","fips_county_cd":"157","full_county_name":"Shelby County","link_title":null,"url":"http:\/\/www.germantown-tn.gov\/","name":"Germantown","primary_latitude":"35.08","primary_longitude":"-89.81","state_abbreviation":"TN","state_name":"Tennessee"},{"county_name":"Davidson","description":null,"feat_class":"Populated Place","feature_id":"31795","fips_class":"C1","fips_county_cd":"37","full_county_name":"Davidson County","link_title":null,"url":"http:\/\/www.cityofgoodlettsville.org\/","name":"Goodlettsville","primary_latitude":"36.32","primary_longitude":"-86.71","state_abbreviation":"TN","state_name":"Tennessee"},{"county_name":"Sumner","description":null,"feat_class":"Populated Place","feature_id":"31811","fips_class":"C1","fips_county_cd":"165","full_county_name":"Sumner County","link_title":null,"url":"http:\/\/www.hvilletn.org\/","name":"Hendersonville","primary_latitude":"36.3","primary_longitude":"-86.61","state_abbreviation":"TN","state_name":"Tennessee"},{"county_name":"Madison","description":null,"feat_class":"Populated Place","feature_id":"31825","fips_class":"C1","fips_county_cd":"113","full_county_name":"Madison County","link_title":null,"url":"http:\/\/www.cityofjackson.net\/","name":"Jackson","primary_latitude":"35.61","primary_longitude":"-88.81","state_abbreviation":"TN","state_name":"Tennessee"},{"county_name":"Campbell","description":null,"feat_class":"Populated Place","feature_id":"31829","fips_class":"C1","fips_county_cd":"13","full_county_name":"Campbell County","link_title":null,"url":"http:\/\/www.jellico.tn.us\/","name":"Jellico","primary_latitude":"36.58","primary_longitude":"-84.12","state_abbreviation":"TN","state_name":"Tennessee"},{"county_name":"Washington","description":null,"feat_class":"Populated Place","feature_id":"31830","fips_class":"C1","fips_county_cd":"179","full_county_name":"Washington County","link_title":null,"url":"http:\/\/www.johnsoncitytn.org\/","name":"Johnson City","primary_latitude":"36.31","primary_longitude":"-82.35","state_abbreviation":"TN","state_name":"Tennessee"},{"county_name":"Sullivan","description":null,"feat_class":"Populated Place","feature_id":"31836","fips_class":"C1","fips_county_cd":"163","full_county_name":"Sullivan County","link_title":null,"url":"http:\/\/www.kingsporttn.gov\/","name":"Kingsport","primary_latitude":"36.54","primary_longitude":"-82.56","state_abbreviation":"TN","state_name":"Tennessee"},{"county_name":"Cheatham","description":null,"feat_class":"Populated Place","feature_id":"31839","fips_class":"C1","fips_county_cd":"21","full_county_name":"Cheatham County","link_title":null,"url":"http:\/\/www.kingstonsprings.net\/","name":"Kingston Springs","primary_latitude":"36.1","primary_longitude":"-87.11","state_abbreviation":"TN","state_name":"Tennessee"},{"county_name":"Knox","description":null,"feat_class":"Populated Place","feature_id":"31840","fips_class":"C1","fips_county_cd":"93","full_county_name":"Knox County","link_title":null,"url":"http:\/\/www.cityofknoxville.org\/","name":"Knoxville","primary_latitude":"35.96","primary_longitude":"-83.92","state_abbreviation":"TN","state_name":"Tennessee"},{"county_name":"Rutherford","description":null,"feat_class":"Populated Place","feature_id":"31842","fips_class":"C1","fips_county_cd":"149","full_county_name":"Rutherford County","link_title":null,"url":"http:\/\/www.lavergne.org\/","name":"La Vergne","primary_latitude":"36.01","primary_longitude":"-86.58","state_abbreviation":"TN","state_name":"Tennessee"},{"county_name":"Shelby","description":null,"feat_class":"Populated Place","feature_id":"31846","fips_class":"C1","fips_county_cd":"157","full_county_name":"Shelby County","link_title":null,"url":"http:\/\/www.cityoflakeland.com\/","name":"Lakeland","primary_latitude":"35.23","primary_longitude":"-89.74","state_abbreviation":"TN","state_name":"Tennessee"},{"county_name":"Lawrence","description":null,"feat_class":"Populated Place","feature_id":"31849","fips_class":"C1","fips_county_cd":"99","full_county_name":"Lawrence County","link_title":null,"url":"http:\/\/www.lawrenceburgtn.gov\/","name":"Lawrenceburg","primary_latitude":"35.24","primary_longitude":"-87.33","state_abbreviation":"TN","state_name":"Tennessee"},{"county_name":"Wilson","description":null,"feat_class":"Populated Place","feature_id":"31850","fips_class":"C1","fips_county_cd":"189","full_county_name":"Wilson County","link_title":null,"url":"http:\/\/www.lebanon-tn.com\/","name":"Lebanon","primary_latitude":"36.2","primary_longitude":"-86.29","state_abbreviation":"TN","state_name":"Tennessee"},{"county_name":"Marshall","description":null,"feat_class":"Populated Place","feature_id":"31852","fips_class":"C1","fips_county_cd":"117","full_county_name":"Marshall County","link_title":null,"url":"http:\/\/www.lewisburgtn.com\/","name":"Lewisburg","primary_latitude":"35.44","primary_longitude":"-86.78","state_abbreviation":"TN","state_name":"Tennessee"},{"county_name":"Henderson","description":null,"feat_class":"Populated Place","feature_id":"31853","fips_class":"C1","fips_county_cd":"77","full_county_name":"Henderson County","link_title":null,"url":"http:\/\/www.ci.lexington.tn.us\/","name":"Lexington","primary_latitude":"35.65","primary_longitude":"-88.39","state_abbreviation":"TN","state_name":"Tennessee"},{"county_name":"Lawrence","description":null,"feat_class":"Populated Place","feature_id":"31859","fips_class":"C1","fips_county_cd":"99","full_county_name":"Lawrence County","link_title":null,"url":"http:\/\/www.cityoflorettotn.com\/","name":"Loretto","primary_latitude":"35.07","primary_longitude":"-87.43","state_abbreviation":"TN","state_name":"Tennessee"},{"county_name":"Blount","description":null,"feat_class":"Populated Place","feature_id":"31868","fips_class":"C1","fips_county_cd":"9","full_county_name":"Blount County","link_title":null,"url":"http:\/\/www.maryvillegov.com\/","name":"Maryville","primary_latitude":"35.75","primary_longitude":"-83.97","state_abbreviation":"TN","state_name":"Tennessee"},{"county_name":"Madison","description":null,"feat_class":"Populated Place","feature_id":"31877","fips_class":"C1","fips_county_cd":"113","full_county_name":"Madison County","link_title":null,"url":"http:\/\/cityofmedontn.homestead.com\/","name":"Medon","primary_latitude":"35.45","primary_longitude":"-88.86","state_abbreviation":"TN","state_name":"Tennessee"},{"county_name":"Shelby","description":null,"feat_class":"Populated Place","feature_id":"31878","fips_class":"C1","fips_county_cd":"157","full_county_name":"Shelby County","link_title":null,"url":"http:\/\/www.cityofmemphis.org\/","name":"Memphis","primary_latitude":"35.14","primary_longitude":"-90.04","state_abbreviation":"TN","state_name":"Tennessee"},{"county_name":"Gibson","description":null,"feat_class":"Populated Place","feature_id":"31881","fips_class":"C1","fips_county_cd":"53","full_county_name":"Gibson County","link_title":null,"url":"http:\/\/www.cityofmilantn.com\/","name":"Milan","primary_latitude":"35.91","primary_longitude":"-88.75","state_abbreviation":"TN","state_name":"Tennessee"},{"county_name":null,"description":null,"feat_class":"Civil","feature_id":"39053","fips_class":"H1","fips_county_cd":"11","full_county_name":null,"link_title":null,"url":"http:\/\/www.bradleyco.net\/","name":"Bradley County","primary_latitude":"35.15","primary_longitude":"-84.86","state_abbreviation":"TN","state_name":"Tennessee"},{"county_name":null,"description":null,"feat_class":"Civil","feature_id":"39054","fips_class":"H1","fips_county_cd":"13","full_county_name":null,"link_title":null,"url":"http:\/\/co.campbell.tn.us\/","name":"Campbell County","primary_latitude":"36.4","primary_longitude":"-84.13","state_abbreviation":"TN","state_name":"Tennessee"},{"county_name":"Shelby","description":null,"feat_class":"Populated Place","feature_id":"31887","fips_class":"C1","fips_county_cd":"157","full_county_name":"Shelby County","link_title":null,"url":"http:\/\/www.cityofmillington.org\/","name":"Millington","primary_latitude":"35.34","primary_longitude":"-89.89","state_abbreviation":"TN","state_name":"Tennessee"},{"county_name":null,"description":null,"feat_class":"Civil","feature_id":"39061","fips_class":"H1","fips_county_cd":"27","full_county_name":null,"link_title":null,"url":"http:\/\/www.dalehollowlake.org\/","name":"Clay County","primary_latitude":"36.55","primary_longitude":"-85.53","state_abbreviation":"TN","state_name":"Tennessee"},{"county_name":"Hamblen","description":null,"feat_class":"Populated Place","feature_id":"31894","fips_class":"C1","fips_county_cd":"63","full_county_name":"Hamblen County","link_title":null,"url":"http:\/\/www.mymorristown.com\/","name":"Morristown","primary_latitude":"36.21","primary_longitude":"-83.29","state_abbreviation":"TN","state_name":"Tennessee"},{"county_name":null,"description":null,"feat_class":"Civil","feature_id":"39063","fips_class":"H1","fips_county_cd":"31","full_county_name":null,"link_title":null,"url":"http:\/\/www.coffeecountytn.org\/","name":"Coffee County","primary_latitude":"35.48","primary_longitude":"-86.06","state_abbreviation":"TN","state_name":"Tennessee"},{"county_name":null,"description":null,"feat_class":"Civil","feature_id":"39065","fips_class":"H1","fips_county_cd":"35","full_county_name":null,"link_title":null,"url":"http:\/\/www.brockhill.org\/","name":"Cumberland County","primary_latitude":"35.95","primary_longitude":"-84.96","state_abbreviation":"TN","state_name":"Tennessee"},{"county_name":"Wilson","description":null,"feat_class":"Populated Place","feature_id":"31898","fips_class":"C1","fips_county_cd":"189","full_county_name":"Wilson County","link_title":null,"url":"http:\/\/www.cityofmtjuliet.org\/","name":"Mount Juliet","primary_latitude":"36.2","primary_longitude":"-86.51","state_abbreviation":"TN","state_name":"Tennessee"},{"county_name":null,"description":null,"feat_class":"Civil","feature_id":"39066","fips_class":"H6","fips_county_cd":"37","full_county_name":null,"link_title":null,"url":"http:\/\/www.nashville.gov\/","name":"Davidson County","primary_latitude":"36.1500571","primary_longitude":"-86.7833322","state_abbreviation":"TN","state_name":"Tennessee"},{"county_name":null,"description":null,"feat_class":"Civil","feature_id":"39067","fips_class":"H1","fips_county_cd":"39","full_county_name":null,"link_title":null,"url":"http:\/\/www.decaturcountytn.org\/","name":"Decatur County","primary_latitude":"35.63","primary_longitude":"-88.11","state_abbreviation":"TN","state_name":"Tennessee"},{"county_name":"Tipton","description":null,"feat_class":"Populated Place","feature_id":"31901","fips_class":"C1","fips_county_cd":"167","full_county_name":"Tipton County","link_title":null,"url":"http:\/\/www.munford.com\/","name":"Munford","primary_latitude":"35.44","primary_longitude":"-89.81","state_abbreviation":"TN","state_name":"Tennessee"},{"county_name":"Rutherford","description":null,"feat_class":"Populated Place","feature_id":"31902","fips_class":"C1","fips_county_cd":"149","full_county_name":"Rutherford County","link_title":null,"url":"http:\/\/www.murfreesborotn.gov\/","name":"Murfreesboro","primary_latitude":"35.84","primary_longitude":"-86.39","state_abbreviation":"TN","state_name":"Tennessee"},{"county_name":null,"description":null,"feat_class":"Civil","feature_id":"39071","fips_class":"H1","fips_county_cd":"47","full_county_name":null,"link_title":null,"url":"http:\/\/www.fayettetn.us\/","name":"Fayette County","primary_latitude":"35.2","primary_longitude":"-89.41","state_abbreviation":"TN","state_name":"Tennessee"},{"county_name":null,"description":null,"feat_class":"Civil","feature_id":"39073","fips_class":"H1","fips_county_cd":"51","full_county_name":null,"link_title":null,"url":"http:\/\/www.franklincotn.us\/","name":"Franklin County","primary_latitude":"35.16","primary_longitude":"-86.08","state_abbreviation":"TN","state_name":"Tennessee"},{"county_name":null,"description":null,"feat_class":"Civil","feature_id":"39075","fips_class":"H1","fips_county_cd":"55","full_county_name":null,"link_title":null,"url":"http:\/\/www.gilescounty-tn.us\/","name":"Giles County","primary_latitude":"35.23","primary_longitude":"-87.03","state_abbreviation":"TN","state_name":"Tennessee"},{"county_name":null,"description":null,"feat_class":"Civil","feature_id":"39080","fips_class":"H1","fips_county_cd":"65","full_county_name":null,"link_title":null,"url":"http:\/\/www.hamiltontn.gov\/","name":"Hamilton County","primary_latitude":"35.2","primary_longitude":"-85.14","state_abbreviation":"TN","state_name":"Tennessee"},{"county_name":"Anderson","description":null,"feat_class":"Populated Place","feature_id":"31916","fips_class":"C1","fips_county_cd":"1","full_county_name":"Anderson County","link_title":null,"url":"http:\/\/www.ci.oak-ridge.tn.us\/","name":"Oak Ridge","primary_latitude":"36.01","primary_longitude":"-84.26","state_abbreviation":"TN","state_name":"Tennessee"},{"county_name":null,"description":null,"feat_class":"Civil","feature_id":"39087","fips_class":"H1","fips_county_cd":"79","full_county_name":null,"link_title":null,"url":"http:\/\/www.henryco.com\/","name":"Henry County","primary_latitude":"36.33","primary_longitude":"-88.31","state_abbreviation":"TN","state_name":"Tennessee"},{"county_name":"Roane","description":null,"feat_class":"Populated Place","feature_id":"31920","fips_class":"C1","fips_county_cd":"145","full_county_name":"Roane County","link_title":null,"url":"http:\/\/www.oliverspringscity.com\/","name":"Oliver Springs","primary_latitude":"36.04","primary_longitude":"-84.34","state_abbreviation":"TN","state_name":"Tennessee"},{"county_name":null,"description":null,"feat_class":"Civil","feature_id":"39088","fips_class":"H1","fips_county_cd":"81","full_county_name":null,"link_title":null,"url":"http:\/\/www.hickmanco.com\/","name":"Hickman County","primary_latitude":"35.8","primary_longitude":"-87.48","state_abbreviation":"TN","state_name":"Tennessee"},{"county_name":null,"description":null,"feat_class":"Civil","feature_id":"39091","fips_class":"H1","fips_county_cd":"87","full_county_name":null,"link_title":null,"url":"http:\/\/www.jacksonco.com\/","name":"Jackson County","primary_latitude":"36.36","primary_longitude":"-85.64","state_abbreviation":"TN","state_name":"Tennessee"},{"county_name":null,"description":null,"feat_class":"Civil","feature_id":"39094","fips_class":"H1","fips_county_cd":"93","full_county_name":null,"link_title":null,"url":"http:\/\/www.knoxcounty.org\/","name":"Knox County","primary_latitude":"36.01","primary_longitude":"-83.93","state_abbreviation":"TN","state_name":"Tennessee"},{"county_name":null,"description":null,"feat_class":"Civil","feature_id":"39097","fips_class":"H1","fips_county_cd":"99","full_county_name":null,"link_title":null,"url":"http:\/\/www.lawcotn.org\/","name":"Lawrence County","primary_latitude":"35.21","primary_longitude":"-87.4","state_abbreviation":"TN","state_name":"Tennessee"},{"county_name":"Cheatham","description":null,"feat_class":"Populated Place","feature_id":"31930","fips_class":"C1","fips_county_cd":"21","full_county_name":"Cheatham County","link_title":null,"url":"http:\/\/www.pegram.net\/","name":"Pegram","primary_latitude":"36.1","primary_longitude":"-87.05","state_abbreviation":"TN","state_name":"Tennessee"},{"county_name":null,"description":null,"feat_class":"Civil","feature_id":"39100","fips_class":"H1","fips_county_cd":"105","full_county_name":null,"link_title":null,"url":"http:\/\/www.loudoncounty.com\/","name":"Loudon County","primary_latitude":"35.73","primary_longitude":"-84.31","state_abbreviation":"TN","state_name":"Tennessee"},{"county_name":null,"description":null,"feat_class":"Civil","feature_id":"39101","fips_class":"H1","fips_county_cd":"111","full_county_name":null,"link_title":null,"url":"http:\/\/www.maconcountytn.com\/","name":"Macon County","primary_latitude":"36.53","primary_longitude":"-86.03","state_abbreviation":"TN","state_name":"Tennessee"},{"county_name":"Shelby","description":null,"feat_class":"Populated Place","feature_id":"31678","fips_class":"C1","fips_county_cd":"157","full_county_name":"Shelby County","link_title":null,"url":"http:\/\/www.townofarlington.org\/","name":"Arlington","primary_latitude":"35.29","primary_longitude":"-89.66","state_abbreviation":"TN","state_name":"Tennessee"},{"county_name":null,"description":null,"feat_class":"Civil","feature_id":"39102","fips_class":"H1","fips_county_cd":"113","full_county_name":null,"link_title":null,"url":"http:\/\/www.co.madison.tn.us\/","name":"Madison County","primary_latitude":"35.61","primary_longitude":"-88.85","state_abbreviation":"TN","state_name":"Tennessee"},{"county_name":"Cheatham","description":null,"feat_class":"Populated Place","feature_id":"31679","fips_class":"C1","fips_county_cd":"21","full_county_name":"Cheatham County","link_title":null,"url":"http:\/\/www.ashlandcity.net\/","name":"Ashland City","primary_latitude":"36.27","primary_longitude":"-87.06","state_abbreviation":"TN","state_name":"Tennessee"},{"county_name":"Fayette","description":null,"feat_class":"Populated Place","feature_id":"31935","fips_class":"C1","fips_county_cd":"47","full_county_name":"Fayette County","link_title":null,"url":"http:\/\/www.piperton.com\/","name":"Piperton","primary_latitude":"35.04","primary_longitude":"-89.62","state_abbreviation":"TN","state_name":"Tennessee"},{"county_name":"McMinn","description":null,"feat_class":"Populated Place","feature_id":"31680","fips_class":"C1","fips_county_cd":"107","full_county_name":"McMinn County","link_title":null,"url":"http:\/\/www.cityofathenstn.com\/","name":"Athens","primary_latitude":"35.44","primary_longitude":"-84.59","state_abbreviation":"TN","state_name":"Tennessee"},{"county_name":null,"description":null,"feat_class":"Civil","feature_id":"39104","fips_class":"H1","fips_county_cd":"117","full_county_name":null,"link_title":null,"url":"http:\/\/www.marshallcountytn.com\/","name":"Marshall County","primary_latitude":"35.46","primary_longitude":"-86.76","state_abbreviation":"TN","state_name":"Tennessee"},{"county_name":null,"description":null,"feat_class":"Civil","feature_id":"39106","fips_class":"H1","fips_county_cd":"107","full_county_name":null,"link_title":null,"url":"http:\/\/www.mcminncounty.org\/","name":"McMinn County","primary_latitude":"35.43","primary_longitude":"-84.59","state_abbreviation":"TN","state_name":"Tennessee"},{"county_name":"Giles","description":null,"feat_class":"Populated Place","feature_id":"31941","fips_class":"C1","fips_county_cd":"55","full_county_name":"Giles County","link_title":null,"url":"http:\/\/www.pulaski-tn.com\/","name":"Pulaski","primary_latitude":"35.19","primary_longitude":"-87.03","state_abbreviation":"TN","state_name":"Tennessee"},{"county_name":null,"description":null,"feat_class":"Civil","feature_id":"39109","fips_class":"H1","fips_county_cd":"123","full_county_name":null,"link_title":null,"url":"http:\/\/www.monroegovernment.org\/","name":"Monroe County","primary_latitude":"35.45","primary_longitude":"-84.23","state_abbreviation":"TN","state_name":"Tennessee"},{"county_name":"Shelby","description":null,"feat_class":"Populated Place","feature_id":"31686","fips_class":"C1","fips_county_cd":"157","full_county_name":"Shelby County","link_title":null,"url":"http:\/\/www.cityofbartlett.org\/","name":"Bartlett","primary_latitude":"35.2","primary_longitude":"-89.87","state_abbreviation":"TN","state_name":"Tennessee"},{"county_name":null,"description":null,"feat_class":"Civil","feature_id":"39110","fips_class":"H1","fips_county_cd":"125","full_county_name":null,"link_title":null,"url":"http:\/\/www.mcgtn.org\/","name":"Montgomery County","primary_latitude":"36.48","primary_longitude":"-87.48","state_abbreviation":"TN","state_name":"Tennessee"},{"county_name":"Hamilton","description":null,"feat_class":"Populated Place","feature_id":"31944","fips_class":"C1","fips_county_cd":"65","full_county_name":"Hamilton County","link_title":null,"url":"http:\/\/www.redbanktn.gov\/","name":"Red Bank","primary_latitude":"35.11","primary_longitude":"-85.29","state_abbreviation":"TN","state_name":"Tennessee"},{"county_name":null,"description":null,"feat_class":"Civil","feature_id":"39115","fips_class":"H1","fips_county_cd":"135","full_county_name":null,"link_title":null,"url":"http:\/\/www.perrycountytennessee.com\/","name":"Perry County","primary_latitude":"35.65","primary_longitude":"-87.86","state_abbreviation":"TN","state_name":"Tennessee"},{"county_name":null,"description":null,"feat_class":"Civil","feature_id":"39116","fips_class":"H1","fips_county_cd":"137","full_county_name":null,"link_title":null,"url":"http:\/\/www.dalehollow.com\/","name":"Pickett County","primary_latitude":"36.55","primary_longitude":"-85.06","state_abbreviation":"TN","state_name":"Tennessee"},{"county_name":null,"description":null,"feat_class":"Civil","feature_id":"39118","fips_class":"H1","fips_county_cd":"141","full_county_name":null,"link_title":null,"url":"http:\/\/www.putnamcountytn.gov\/","name":"Putnam County","primary_latitude":"36.16","primary_longitude":"-85.64","state_abbreviation":"TN","state_name":"Tennessee"},{"county_name":null,"description":null,"feat_class":"Civil","feature_id":"39120","fips_class":"H1","fips_county_cd":"145","full_county_name":null,"link_title":null,"url":"http:\/\/www.roanealliance.org\/","name":"Roane County","primary_latitude":"35.85","primary_longitude":"-84.53","state_abbreviation":"TN","state_name":"Tennessee"},{"county_name":null,"description":null,"feat_class":"Civil","feature_id":"39122","fips_class":"H1","fips_county_cd":"149","full_county_name":null,"link_title":null,"url":"http:\/\/www.rutherfordcounty.org\/","name":"Rutherford County","primary_latitude":"35.85","primary_longitude":"-86.39","state_abbreviation":"TN","state_name":"Tennessee"},{"county_name":null,"description":null,"feat_class":"Civil","feature_id":"39123","fips_class":"H1","fips_county_cd":"151","full_county_name":null,"link_title":null,"url":"http:\/\/www.scottcounty.com\/","name":"Scott County","primary_latitude":"36.45","primary_longitude":"-84.51","state_abbreviation":"TN","state_name":"Tennessee"},{"county_name":"Williamson","description":null,"feat_class":"Populated Place","feature_id":"31702","fips_class":"C1","fips_county_cd":"187","full_county_name":"Williamson County","link_title":null,"url":"http:\/\/www.brentwood-tn.org\/","name":"Brentwood","primary_latitude":"36.03","primary_longitude":"-86.78","state_abbreviation":"TN","state_name":"Tennessee"},{"county_name":null,"description":null,"feat_class":"Civil","feature_id":"39126","fips_class":"H1","fips_county_cd":"157","full_county_name":null,"link_title":null,"url":"http:\/\/www.shelbycountytn.gov\/","name":"Shelby County","primary_latitude":"35.2","primary_longitude":"-89.86","state_abbreviation":"TN","state_name":"Tennessee"},{"county_name":null,"description":null,"feat_class":"Civil","feature_id":"39128","fips_class":"H1","fips_county_cd":"161","full_county_name":null,"link_title":null,"url":"http:\/\/www.stewartcountygovernment.com\/","name":"Stewart County","primary_latitude":"36.48","primary_longitude":"-87.83","state_abbreviation":"TN","state_name":"Tennessee"},{"county_name":"Sullivan","description":null,"feat_class":"Populated Place","feature_id":"31705","fips_class":"C1","fips_county_cd":"163","full_county_name":"Sullivan County","link_title":null,"url":"http:\/\/www.bristoltn.org\/","name":"Bristol","primary_latitude":"36.59","primary_longitude":"-82.18","state_abbreviation":"TN","state_name":"Tennessee"},{"county_name":null,"description":null,"feat_class":"Civil","feature_id":"39129","fips_class":"H1","fips_county_cd":"163","full_county_name":null,"link_title":null,"url":"http:\/\/www.sullivancounty.org\/","name":"Sullivan County","primary_latitude":"36.51","primary_longitude":"-82.53","state_abbreviation":"TN","state_name":"Tennessee"},{"county_name":"Hardin","description":null,"feat_class":"Populated Place","feature_id":"31962","fips_class":"C1","fips_county_cd":"71","full_county_name":"Hardin County","link_title":null,"url":"http:\/\/www.cityofsavannah.org\/","name":"Savannah","primary_latitude":"35.22","primary_longitude":"-88.24","state_abbreviation":"TN","state_name":"Tennessee"},{"county_name":null,"description":null,"feat_class":"Civil","feature_id":"39130","fips_class":"H1","fips_county_cd":"165","full_county_name":null,"link_title":null,"url":"http:\/\/www.sumnertn.org\/","name":"Sumner County","primary_latitude":"36.49","primary_longitude":"-86.44","state_abbreviation":"TN","state_name":"Tennessee"},{"county_name":null,"description":null,"feat_class":"Civil","feature_id":"39131","fips_class":"H1","fips_county_cd":"167","full_county_name":null,"link_title":null,"url":"http:\/\/tiptonco.com\/","name":"Tipton County","primary_latitude":"35.53","primary_longitude":"-89.73","state_abbreviation":"TN","state_name":"Tennessee"},{"county_name":"Sevier","description":null,"feat_class":"Populated Place","feature_id":"31966","fips_class":"C1","fips_county_cd":"155","full_county_name":"Sevier County","link_title":null,"url":"http:\/\/www.seviervilletn.org\/","name":"Sevierville","primary_latitude":"35.86","primary_longitude":"-83.56","state_abbreviation":"TN","state_name":"Tennessee"},{"county_name":null,"description":null,"feat_class":"Civil","feature_id":"39134","fips_class":"H1","fips_county_cd":"173","full_county_name":null,"link_title":null,"url":"http:\/\/www.unioncountytn.org\/","name":"Union County","primary_latitude":"36.28","primary_longitude":"-83.83","state_abbreviation":"TN","state_name":"Tennessee"},{"county_name":"Bedford","description":null,"feat_class":"Populated Place","feature_id":"31968","fips_class":"C1","fips_county_cd":"3","full_county_name":"Bedford County","link_title":null,"url":"http:\/\/www.shelbyvilletn.org\/","name":"Shelbyville","primary_latitude":"35.48","primary_longitude":"-86.46","state_abbreviation":"TN","state_name":"Tennessee"},{"county_name":"Hamilton","description":null,"feat_class":"Populated Place","feature_id":"31969","fips_class":"C1","fips_county_cd":"65","full_county_name":"Hamilton County","link_title":null,"url":"http:\/\/www.signalmtntown.org\/","name":"Signal Mountain","primary_latitude":"35.12","primary_longitude":"-85.34","state_abbreviation":"TN","state_name":"Tennessee"},{"county_name":null,"description":null,"feat_class":"Civil","feature_id":"39137","fips_class":"H1","fips_county_cd":"179","full_county_name":null,"link_title":null,"url":"http:\/\/www.washingtoncountytn.com\/","name":"Washington County","primary_latitude":"36.28","primary_longitude":"-82.48","state_abbreviation":"TN","state_name":"Tennessee"},{"county_name":null,"description":null,"feat_class":"Civil","feature_id":"39138","fips_class":"H1","fips_county_cd":"181","full_county_name":null,"link_title":null,"url":"http:\/\/www.waynecountytn.org\/","name":"Wayne County","primary_latitude":"35.25","primary_longitude":"-87.78","state_abbreviation":"TN","state_name":"Tennessee"},{"county_name":null,"description":null,"feat_class":"Civil","feature_id":"39139","fips_class":"H1","fips_county_cd":"183","full_county_name":null,"link_title":null,"url":"http:\/\/www.weakleycountytn.gov\/","name":"Weakley County","primary_latitude":"36.3","primary_longitude":"-88.83","state_abbreviation":"TN","state_name":"Tennessee"},{"county_name":"DeKalb","description":null,"feat_class":"Populated Place","feature_id":"31972","fips_class":"C1","fips_county_cd":"41","full_county_name":"DeKalb County","link_title":null,"url":"http:\/\/www.smithvilletn.com\/government\/","name":"Smithville","primary_latitude":"35.96","primary_longitude":"-85.81","state_abbreviation":"TN","state_name":"Tennessee"},{"county_name":"Rutherford","description":null,"feat_class":"Populated Place","feature_id":"31973","fips_class":"C1","fips_county_cd":"149","full_county_name":"Rutherford County","link_title":null,"url":"http:\/\/www.townofsmyrna.org\/","name":"Smyrna","primary_latitude":"35.98","primary_longitude":"-86.51","state_abbreviation":"TN","state_name":"Tennessee"},{"county_name":null,"description":null,"feat_class":"Civil","feature_id":"39141","fips_class":"H1","fips_county_cd":"187","full_county_name":null,"link_title":null,"url":"http:\/\/www.williamsoncounty-tn.gov\/","name":"Williamson County","primary_latitude":"35.9","primary_longitude":"-86.9","state_abbreviation":"TN","state_name":"Tennessee"},{"county_name":null,"description":null,"feat_class":"Civil","feature_id":"39142","fips_class":"H1","fips_county_cd":"189","full_county_name":null,"link_title":null,"url":"http:\/\/www.wilsoncountytn.com\/","name":"Wilson County","primary_latitude":"36.15","primary_longitude":"-86.28","state_abbreviation":"TN","state_name":"Tennessee"},{"county_name":"Hamilton","description":null,"feat_class":"Populated Place","feature_id":"31975","fips_class":"C1","fips_county_cd":"65","full_county_name":"Hamilton County","link_title":null,"url":"http:\/\/www.soddy-daisy.org","name":"Soddy-Daisy","primary_latitude":"35.23","primary_longitude":"-85.19","state_abbreviation":"TN","state_name":"Tennessee"},{"county_name":"Hamilton","description":null,"feat_class":"Populated Place","feature_id":"31724","fips_class":"C1","fips_county_cd":"65","full_county_name":"Hamilton County","link_title":null,"url":"http:\/\/www.chattanooga.gov\/","name":"Chattanooga","primary_latitude":"35.04","primary_longitude":"-85.3","state_abbreviation":"TN","state_name":"Tennessee"},{"county_name":"Montgomery","description":null,"feat_class":"Populated Place","feature_id":"31727","fips_class":"C1","fips_county_cd":"125","full_county_name":"Montgomery County","link_title":null,"url":"http:\/\/www.cityofclarksville.com\/","name":"Clarksville","primary_latitude":"36.52","primary_longitude":"-87.35","state_abbreviation":"TN","state_name":"Tennessee"},{"county_name":"Maury","description":null,"feat_class":"Populated Place","feature_id":"31983","fips_class":"C1","fips_county_cd":"119","full_county_name":"Maury County","link_title":null,"url":"http:\/\/www.springhilltn.org\/","name":"Spring Hill","primary_latitude":"35.75","primary_longitude":"-86.93","state_abbreviation":"TN","state_name":"Tennessee"},{"county_name":"Bradley","description":null,"feat_class":"Populated Place","feature_id":"31728","fips_class":"C1","fips_county_cd":"11","full_county_name":"Bradley County","link_title":null,"url":"http:\/\/www.cityofclevelandtn.com\/","name":"Cleveland","primary_latitude":"35.15","primary_longitude":"-84.87","state_abbreviation":"TN","state_name":"Tennessee"},{"county_name":"Wayne","description":null,"feat_class":"Populated Place","feature_id":"31729","fips_class":"C1","fips_county_cd":"181","full_county_name":"Wayne County","link_title":null,"url":"http:\/\/www.cityofclifton.com\/","name":"Clifton","primary_latitude":"35.38","primary_longitude":"-87.99","state_abbreviation":"TN","state_name":"Tennessee"},{"county_name":"Anderson","description":null,"feat_class":"Populated Place","feature_id":"31730","fips_class":"C1","fips_county_cd":"1","full_county_name":"Anderson County","link_title":null,"url":"http:\/\/clintontn.net\/","name":"Clinton","primary_latitude":"36.1","primary_longitude":"-84.13","state_abbreviation":"TN","state_name":"Tennessee"},{"county_name":"Shelby","description":null,"feat_class":"Populated Place","feature_id":"31733","fips_class":"C1","fips_county_cd":"157","full_county_name":"Shelby County","link_title":null,"url":"http:\/\/www.collierville.com\/","name":"Collierville","primary_latitude":"35.04","primary_longitude":"-89.66","state_abbreviation":"TN","state_name":"Tennessee"},{"county_name":"Maury","description":null,"feat_class":"Populated Place","feature_id":"31735","fips_class":"C1","fips_county_cd":"119","full_county_name":"Maury County","link_title":null,"url":"http:\/\/www.columbiatn.com\/","name":"Columbia","primary_latitude":"35.61","primary_longitude":"-87.03","state_abbreviation":"TN","state_name":"Tennessee"},{"county_name":"Putnam","description":null,"feat_class":"Populated Place","feature_id":"31737","fips_class":"C1","fips_county_cd":"141","full_county_name":"Putnam County","link_title":null,"url":"http:\/\/www.cookeville-tn.org\/","name":"Cookeville","primary_latitude":"36.16","primary_longitude":"-85.5","state_abbreviation":"TN","state_name":"Tennessee"},{"county_name":"Tipton","description":null,"feat_class":"Populated Place","feature_id":"31742","fips_class":"C1","fips_county_cd":"167","full_county_name":"Tipton County","link_title":null,"url":"http:\/\/www.covingtontn.com\/","name":"Covington","primary_latitude":"35.56","primary_longitude":"-89.64","state_abbreviation":"TN","state_name":"Tennessee"},{"county_name":"Robertson","description":null,"feat_class":"Populated Place","feature_id":"32021","fips_class":"C1","fips_county_cd":"147","full_county_name":"Robertson County","link_title":null,"url":"http:\/\/www.cityofwhitehouse.com\/","name":"White House","primary_latitude":"36.47","primary_longitude":"-86.65","state_abbreviation":"TN","state_name":"Tennessee"},{"county_name":"Hawkins","description":null,"feat_class":"Populated Place","feature_id":"31837","fips_class":"C1","fips_county_cd":"73","full_county_name":"Hawkins County","link_title":null,"url":"http:\/\/www.kingsporttn.gov\/","name":"Kingsport","primary_latitude":"36.54","primary_longitude":"-82.56","state_abbreviation":"TN","state_name":"Tennessee"},{"county_name":"Roane","description":null,"feat_class":"Populated Place","feature_id":"31915","fips_class":"C1","fips_county_cd":"145","full_county_name":"Roane County","link_title":null,"url":"http:\/\/www.ci.oak-ridge.tn.us\/","name":"Oak Ridge","primary_latitude":"36.01","primary_longitude":"-84.26","state_abbreviation":"TN","state_name":"Tennessee"},{"county_name":"Anderson","description":null,"feat_class":"Populated Place","feature_id":"31921","fips_class":"C1","fips_county_cd":"1","full_county_name":"Anderson County","link_title":null,"url":"http:\/\/www.oliverspringscity.com\/","name":"Oliver Springs","primary_latitude":"36.04","primary_longitude":"-84.34","state_abbreviation":"TN","state_name":"Tennessee"},{"county_name":"Davidson","description":null,"feat_class":"Populated Place","feature_id":"31703","fips_class":"C1","fips_county_cd":"37","full_county_name":"Davidson County","link_title":null,"url":"http:\/\/www.brentwood-tn.org\/","name":"Brentwood","primary_latitude":"36.03","primary_longitude":"-86.78","state_abbreviation":"TN","state_name":"Tennessee"}]